$GPGGA,114604.66,4913.707791,N,01634.297317,E,4,15,0.0,302.440,M,44.831,M,,*69
$GPRMC,114604.66,A,4913.707791,N,01634.297317,E,0.012,129.62,230217,4.25,E,R,S*5D
$GPZDA,114604.66,23,02,2017,,*67
$GPHDT,189.80,T*0D
$GPGST,114604.66,0.000,0.000,0.000,86.42,0.03,0.03,0.03*6A
$PRDID,-000.16,-000.47,185280$GPGGA,114606.90,4913.707794,N,01634.297321,E,4,15,0.0,302.449,M,44.831,M,,*6B
$GPRMC,114606.90,A,4913.707794,N,01634.297321,E,0.004,81.37,230217,4.25,E,R,S*62
$GPZDA,114606.90,23,02,2017,,*6C
$GPHDT,189.80,T*0D
$GPGST,114606.90,0.000,0.000,0.000,86.56,0.03,0.03,0.04*63
$PRDID,-000.16,-000.47,185280$GPGGA,114608.90,4913.707793,N,01634.297321,E,4,15,0.0,302.444,M,44.831,M,,*6F
$GPRMC,114608.90,A,4913.707793,N,01634.297321,E,0.010,234.80,230217,4.25,E,R,S*5E
$GPZDA,114608.90,23,02,2017,,*62
$GPHDT,189.84,T*09
$GPGST,114608.90,0.000,0.000,0.000,86.49,0.03,0.03,0.04*63
$PRDID,-000.15,-000.46,185084$GPGGA,114610.90,4913.707794,N,01634.297317,E,4,15,0.0,302.442,M,44.831,M,,*62
$GPRMC,114610.90,A,4913.707794,N,01634.297317,E,0.007,246.69,230217,4.25,E,R,S*51
$GPZDA,114610.90,23,02,2017,,*6B
$GPHDT,189.83,T*0E
$GPGST,114610.90,0.000,0.000,0.000,86.51,0.03,0.03,0.04*63
$PRDID,-000.16,-000.46,185383$GPGGA,114612.91,4913.707791,N,01634.297321,E,4,15,0.0,302.442,M,44.831,M,,*61
$GPRMC,114612.91,A,4913.707791,N,01634.297321,E,0.018,189.58,230217,4.25,E,R,S*5E
$GPZDA,114612.91,23,02,2017,,*68
$GPHDT,189.82,T*0F
$GPGST,114612.91,0.000,0.000,0.000,86.51,0.03,0.03,0.04*60
$PRDID,-000.16,-000.47,185282$GPGGA,114614.90,4913.707790,N,01634.297321,E,4,15,0.0,302.448,M,44.831,M,,*6D
$GPRMC,114614.90,A,4913.707790,N,01634.297321,E,0.006,157.94,230217,4.25,E,R,S*54
$GPZDA,114614.90,23,02,2017,,*6F
$GPHDT,189.82,T*0F
$GPGST,114614.90,0.000,0.000,0.000,86.38,0.03,0.03,0.03*6F
$PRDID,-000.15,-000.47,185182$GPGGA,114616.90,4913.707792,N,01634.297321,E,4,15,0.0,302.441,M,44.831,M,,*64
$GPRMC,114616.90,A,4913.707792,N,01634.297321,E,0.001,259.08,230217,4.25,E,R,S*5B
$GPZDA,114616.90,23,02,2017,,*6D
$GPHDT,189.82,T*0F
$GPGST,114616.90,0.000,0.000,0.000,86.32,0.03,0.03,0.03*67
$PRDID,-000.16,-000.47,185282$GPGGA,114618.90,4913.707792,N,01634.297317,E,4,15,0.0,302.441,M,44.831,M,,*6F
$GPRMC,114618.90,A,4913.707792,N,01634.297317,E,0.004,284.21,230217,4.25,E,R,S*5E
$GPZDA,114618.90,23,02,2017,,*63
$GPHDT,189.82,T*0F
$GPGST,114618.90,0.000,0.000,0.000,86.47,0.03,0.03,0.03*6B
$PRDID,-000.15,-000.46,185082$GPGGA,114620.90,4913.707791,N,01634.297317,E,4,15,0.0,302.442,M,44.831,M,,*64
$GPRMC,114620.90,A,4913.707791,N,01634.297317,E,0.020,244.45,230217,4.25,E,R,S*5E
$GPZDA,114620.90,23,02,2017,,*68
$GPHDT,189.81,T*0C
$GPGST,114620.90,0.000,0.000,0.000,86.53,0.03,0.03,0.04*62
$PRDID,-000.15,-000.46,185081$GPGGA,114622.91,4913.707791,N,01634.297317,E,4,15,0.0,302.437,M,44.831,M,,*65
$GPRMC,114622.91,A,4913.707791,N,01634.297317,E,0.015,224.07,230217,4.25,E,R,S*5B
$GPZDA,114622.91,23,02,2017,,*6B
$GPHDT,189.81,T*0C
$GPGST,114622.91,0.000,0.000,0.000,86.52,0.03,0.03,0.04*60
$PRDID,-000.16,-000.45,185081$GPGGA,114624.94,4913.707792,N,01634.297325,E,4,15,0.0,302.442,M,44.831,M,,*66
$GPRMC,114624.94,A,4913.707792,N,01634.297325,E,0.025,132.43,230217,4.25,E,R,S*5D
$GPZDA,114624.94,23,02,2017,,*68
$GPHDT,189.78,T*0A
$GPGST,114624.94,0.000,0.000,0.000,86.44,0.03,0.03,0.03*63
$PRDID,-000.14,-000.49,185E78$GPGGA,114626.94,4913.707794,N,01634.297325,E,4,13,0.0,302.451,M,44.831,M,,*66
$GPRMC,114626.94,A,4913.707794,N,01634.297325,E,0.028,104.93,230217,4.25,E,R,S*5C
$GPZDA,114626.94,23,02,2017,,*6A
$GPHDT,189.77,T*05
$GPGST,114626.94,0.000,0.000,0.000,86.45,0.03,0.03,0.04*67
$PRDID,-000.12,-000.64,185777$GPGGA,114628.94,4913.707798,N,01634.297470,E,4,12,0.0,305.766,M,44.831,M,,*62
$GPRMC,114628.94,A,4913.707798,N,01634.297470,E,0.582,191.19,230217,4.25,E,R,S*52
$GPZDA,114628.94,23,02,2017,,*64
$GPHDT,191.64,T*0E
$GPGST,114628.94,0.000,0.000,0.000,87.96,0.05,0.06,0.07*66
$PRDID,-003.54,+000.85,195F64$GPGGA,114630.94,4913.707704,N,01634.297409,E,4,12,0.0,314.374,M,44.831,M,,*67
$GPRMC,114630.94,A,4913.707704,N,01634.297409,E,0.439,10.96,230217,4.25,E,R,S*6E
$GPZDA,114630.94,23,02,2017,,*6D
$GPHDT,191.73,T*08
$GPGST,114630.94,0.000,0.000,0.000,87.57,0.05,0.06,0.07*62
$PRDID,-002.75,+000.84,195C73$GPGGA,114632.94,4913.707466,N,01634.297317,E,4,12,0.0,325.072,M,44.831,M,,*6D
$GPRMC,114632.94,A,4913.707466,N,01634.297317,E,0.878,186.15,230217,4.25,E,R,S*5F
$GPZDA,114632.94,23,02,2017,,*6F
$GPHDT,191.40,T*08
$GPGST,114632.94,0.000,0.000,0.000,87.70,0.05,0.05,0.06*67
$PRDID,-001.72,+000.66,195440$GPGGA,114634.94,4913.707180,N,01634.297412,E,4,11,0.0,334.796,M,44.831,M,,*6A
$GPRMC,114634.94,A,4913.707180,N,01634.297412,E,0.566,152.26,230217,4.25,E,R,S*5D
$GPZDA,114634.94,23,02,2017,,*69
$GPHDT,191.25,T*0B
$GPGST,114634.94,0.000,0.000,0.000,87.63,0.05,0.06,0.06*60
$PRDID,-000.33,+000.72,195525$GPGGA,114636.94,4913.707238,N,01634.297859,E,4,12,0.0,336.367,M,44.831,M,,*60
$GPRMC,114636.94,A,4913.707238,N,01634.297859,E,0.766,44.16,230217,4.25,E,R,S*6B
$GPZDA,114636.94,23,02,2017,,*6B
$GPHDT,191.01,T*0D
$GPGST,114636.94,0.000,0.000,0.000,86.41,0.03,0.04,0.04*65
$PRDID,-002.36,+001.51,195201$GPGGA,114638.94,4913.707285,N,01634.298088,E,4,12,0.0,335.920,M,44.831,M,,*69
$GPRMC,114638.94,A,4913.707285,N,01634.298088,E,0.763,164.94,230217,4.25,E,R,S*54
$GPZDA,114638.94,23,02,2017,,*65
$GPHDT,193.69,T*01
$GPGST,114638.94,0.000,0.000,0.000,86.88,0.03,0.04,0.04*6E
$PRDID,-012.14,-001.33,195169$GPGGA,114640.94,4913.705703,N,01634.297954,E,4,10,0.0,337.315,M,44.831,M,,*64
$GPRMC,114640.94,A,4913.705703,N,01634.297954,E,2.537,187.06,230217,4.25,E,R,S*52
$GPZDA,114640.94,23,02,2017,,*6A
$GPHDT,250.32,T*03
$GPGST,114640.94,0.000,0.000,0.000,84.82,0.05,0.04,0.06*6D
$PRDID,-000.92,-001.45,255E32$GPGGA,114642.94,4913.704252,N,01634.297397,E,4,12,0.0,337.014,M,44.831,M,,*63
$GPRMC,114642.94,A,4913.704252,N,01634.297397,E,3.179,200.80,230217,4.25,E,R,S*58
$GPZDA,114642.94,23,02,2017,,*68
$GPHDT,270.11,T*00
$GPGST,114642.94,0.000,0.000,0.000,90.97,0.05,0.04,0.05*6D
$PRDID,-000.43,-004.46,275411$GPGGA,114644.94,4913.702486,N,01634.296482,E,4,11,0.0,337.704,M,44.831,M,,*6B
$GPRMC,114644.94,A,4913.702486,N,01634.296482,E,3.529,195.66,230217,4.25,E,R,S*53
$GPZDA,114644.94,23,02,2017,,*6E
$GPHDT,272.29,T*09
$GPGST,114644.94,0.000,0.000,0.000,91.18,0.05,0.04,0.05*6D
$PRDID,+000.67,-004.18,275F29$GPGGA,114646.94,4913.700421,N,01634.295818,E,4,10,0.0,338.662,M,44.831,M,,*65
$GPRMC,114646.94,A,4913.700421,N,01634.295818,E,4.000,187.97,230217,4.25,E,R,S*56
$GPZDA,114646.94,23,02,2017,,*6C
$GPHDT,272.97,T*0C
$GPGST,114646.94,0.000,0.000,0.000,91.60,0.04,0.04,0.05*61
$PRDID,+000.89,-004.03,275597$GPGGA,114648.94,4913.698130,N,01634.295558,E,4,07,0.0,339.842,M,44.831,M,,*6C
$GPRMC,114648.94,A,4913.698130,N,01634.295558,E,4.240,183.62,230217,4.25,E,R,S*5C
$GPZDA,114648.94,23,02,2017,,*62
$GPHDT,272.82,T*08
$GPGST,114648.94,0.000,0.000,0.000,91.02,0.05,0.04,0.06*69
$PRDID,-000.17,-004.00,275782$GPGGA,114650.94,4913.695744,N,01634.295539,E,4,10,0.0,341.225,M,44.831,M,,*68
$GPRMC,114650.94,A,4913.695744,N,01634.295539,E,4.468,177.10,230217,4.25,E,R,S*58
$GPZDA,114650.94,23,02,2017,,*6B
$GPHDT,268.64,T*0B
$GPGST,114650.94,0.000,0.000,0.000,89.55,0.05,0.04,0.06*6B
$PRDID,+000.44,-005.24,265064$GPGGA,114652.94,4913.693217,N,01634.295825,E,4,11,0.0,342.754,M,44.831,M,,*6E
$GPRMC,114652.94,A,4913.693217,N,01634.295825,E,4.679,175.24,230217,4.25,E,R,S*58
$GPZDA,114652.94,23,02,2017,,*69
$GPHDT,265.55,T*04
$GPGST,114652.94,0.000,0.000,0.000,88.62,0.05,0.04,0.05*6F
$PRDID,+000.55,-005.45,265755$GPGGA,114654.93,4913.690436,N,01634.296356,E,4,09,0.0,344.082,M,44.831,M,,*66
$GPRMC,114654.93,A,4913.690436,N,01634.296356,E,5.214,172.38,230217,4.25,E,R,S*57
$GPZDA,114654.93,23,02,2017,,*68
$GPHDT,263.84,T*0E
$GPGST,114654.93,0.000,0.000,0.000,88.51,0.05,0.04,0.06*6D
$PRDID,+000.30,-004.99,265484$GPGGA,114656.94,4913.687530,N,01634.297283,E,4,11,0.0,345.519,M,44.831,M,,*65
$GPRMC,114656.94,A,4913.687530,N,01634.297283,E,5.446,165.67,230217,4.25,E,R,S*56
$GPZDA,114656.94,23,02,2017,,*6D
$GPHDT,261.56,T*03
$GPGST,114656.94,0.000,0.000,0.000,87.22,0.05,0.04,0.05*60
$PRDID,+000.30,-005.27,265056$GPGGA,114658.94,4913.684542,N,01634.298416,E,4,13,0.0,346.832,M,44.831,M,,*6D
$GPRMC,114658.94,A,4913.684542,N,01634.298416,E,5.665,166.74,230217,4.25,E,R,S*59
$GPZDA,114658.94,23,02,2017,,*63
$GPHDT,259.88,T*0B
$GPGST,114658.94,0.000,0.000,0.000,86.65,0.04,0.04,0.05*6D
$PRDID,-001.28,-005.91,255388$GPGGA,114700.93,4913.681347,N,01634.299320,E,4,12,0.0,348.195,M,44.831,M,,*68
$GPRMC,114700.93,A,4913.681347,N,01634.299320,E,6.063,169.87,230217,4.25,E,R,S*57
$GPZDA,114700.93,23,02,2017,,*68
$GPHDT,260.67,T*00
$GPGST,114700.93,0.000,0.000,0.000,87.09,0.04,0.04,0.05*6D
$PRDID,+000.41,-005.09,265A67$GPGGA,114702.93,4913.678074,N,01634.300262,E,4,12,0.0,349.658,M,44.831,M,,*6E
$GPRMC,114702.93,A,4913.678074,N,01634.300262,E,5.913,170.27,230217,4.25,E,R,S*59
$GPZDA,114702.93,23,02,2017,,*6A
$GPHDT,262.91,T*0B
$GPGST,114702.93,0.000,0.000,0.000,87.54,0.04,0.04,0.05*67
$PRDID,-001.65,-004.76,265291$GPGGA,114704.93,4913.674874,N,01634.300788,E,4,11,0.0,350.408,M,44.831,M,,*61
$GPRMC,114704.93,A,4913.674874,N,01634.300788,E,5.849,176.23,230217,4.25,E,R,S*56
$GPZDA,114704.93,23,02,2017,,*6C
$GPHDT,266.07,T*00
$GPGST,114704.93,0.000,0.000,0.000,88.77,0.04,0.04,0.05*6F
$PRDID,-000.48,-006.18,265607$GPGGA,114706.94,4913.671551,N,01634.301002,E,4,11,0.0,350.677,M,44.831,M,,*65
$GPRMC,114706.94,A,4913.671551,N,01634.301002,E,5.992,177.92,230217,4.25,E,R,S*54
$GPZDA,114706.94,23,02,2017,,*69
$GPHDT,268.68,T*07
$GPGST,114706.94,0.000,0.000,0.000,89.71,0.04,0.04,0.05*6D
$PRDID,-000.51,-005.15,265068$GPGGA,114708.94,4913.668230,N,01634.301254,E,4,12,0.0,350.784,M,44.831,M,,*6C
$GPRMC,114708.94,A,4913.668230,N,01634.301254,E,5.958,178.11,230217,4.25,E,R,S*51
$GPZDA,114708.94,23,02,2017,,*67
$GPHDT,270.36,T*05
$GPGST,114708.94,0.000,0.000,0.000,90.32,0.04,0.04,0.05*6C
$PRDID,-001.10,-005.32,275136$GPGGA,114710.94,4913.664905,N,01634.301353,E,4,14,0.0,350.785,M,44.831,M,,*65
$GPRMC,114710.94,A,4913.664905,N,01634.301353,E,6.156,178.79,230217,4.25,E,R,S*54
$GPZDA,114710.94,23,02,2017,,*6E
$GPHDT,271.78,T*0E
$GPGST,114710.94,0.000,0.000,0.000,90.97,0.04,0.04,0.05*6A
$PRDID,+000.14,-006.39,275A78$GPGGA,114712.95,4913.661396,N,01634.301494,E,4,14,0.0,350.404,M,44.831,M,,*65
$GPRMC,114712.95,A,4913.661396,N,01634.301494,E,6.022,181.30,230217,4.25,E,R,S*57
$GPZDA,114712.95,23,02,2017,,*6D
$GPHDT,272.20,T*00
$GPGST,114712.95,0.000,0.000,0.000,91.38,0.04,0.04,0.05*6D
$PRDID,-014.32,+005.47,275120$GPGGA,114714.93,4913.660791,N,01634.298728,E,4,12,0.0,349.491,M,44.831,M,,*60
$GPRMC,114714.93,A,4913.660791,N,01634.298728,E,4.771,301.05,230217,4.25,E,R,S*5F
$GPZDA,114714.93,23,02,2017,,*6D
$GPHDT,310.31,T*05
$GPGST,114714.93,0.000,0.000,0.000,92.37,0.04,0.04,0.05*61
$PRDID,-005.14,+001.71,315531$GPGGA,114716.94,4913.662837,N,01634.295417,E,4,12,0.0,349.109,M,44.831,M,,*62
$GPRMC,114716.94,A,4913.662837,N,01634.295417,E,5.693,322.33,230217,4.25,E,R,S*51
$GPZDA,114716.94,23,02,2017,,*68
$GPHDT,11.47,T*36
$GPGST,114716.94,0.000,0.000,0.000,87.80,0.04,0.04,0.05*6C
$PRDID,-002.59,-000.06,015F47$GPGGA,114718.94,4913.665790,N,01634.293121,E,4,13,0.0,349.208,M,44.831,M,,*6C
$GPRMC,114718.94,A,4913.665790,N,01634.293121,E,6.277,339.41,230217,4.25,E,R,S*5E
$GPZDA,114718.94,23,02,2017,,*66
$GPHDT,43.23,T*33
$GPGST,114718.94,0.000,0.000,0.000,85.68,0.04,0.04,0.05*66
$PRDID,-000.46,-001.74,045723$GPGGA,114720.93,4913.669099,N,01634.291137,E,4,15,0.0,349.218,M,44.831,M,,*60
$GPRMC,114720.93,A,4913.669099,N,01634.291137,E,6.544,336.44,230217,4.25,E,R,S*58
$GPZDA,114720.93,23,02,2017,,*6A
$GPHDT,60.90,T*3A
$GPGST,114720.93,0.000,0.000,0.000,86.18,0.04,0.04,0.05*6E
$PRDID,+002.61,-002.12,065590$GPGGA,114722.95,4913.672474,N,01634.288597,E,4,14,0.0,349.261,M,44.831,M,,*60
$GPRMC,114722.95,A,4913.672474,N,01634.288597,E,6.982,331.89,230217,4.25,E,R,S*57
$GPZDA,114722.95,23,02,2017,,*6E
$GPHDT,68.28,T*31
$GPGST,114722.95,0.000,0.000,0.000,87.29,0.04,0.04,0.05*69
$PRDID,+001.98,-001.85,065D28$GPGGA,114724.94,4913.675794,N,01634.285751,E,4,14,0.0,349.333,M,44.831,M,,*6E
$GPRMC,114724.94,A,4913.675794,N,01634.285751,E,6.831,328.95,230217,4.25,E,R,S*53
$GPZDA,114724.94,23,02,2017,,*69
$GPHDT,70.71,T*34
$GPGST,114724.94,0.000,0.000,0.000,87.68,0.04,0.04,0.05*6B
$PRDID,+002.89,-002.54,075171$GPGGA,114726.94,4913.679158,N,01634.283061,E,4,14,0.0,349.266,M,44.831,M,,*65
$GPRMC,114726.94,A,4913.679158,N,01634.283061,E,7.032,335.34,230217,4.25,E,R,S*54
$GPZDA,114726.94,23,02,2017,,*6B
$GPHDT,72.65,T*33
$GPGST,114726.94,0.000,0.000,0.000,88.25,0.04,0.04,0.05*6F
$PRDID,+003.22,-003.98,075065$GPGGA,114728.94,4913.682749,N,01634.280288,E,4,14,0.0,349.057,M,44.831,M,,*6F
$GPRMC,114728.94,A,4913.682749,N,01634.280288,E,7.239,332.43,230217,4.25,E,R,S*50
$GPZDA,114728.94,23,02,2017,,*65
$GPHDT,76.02,T*36
$GPGST,114728.94,0.000,0.000,0.000,88.85,0.04,0.04,0.05*6B
$PRDID,+002.02,-002.78,075C02$GPGGA,114730.94,4913.686360,N,01634.277450,E,4,16,0.0,349.126,M,44.831,M,,*63
$GPRMC,114730.94,A,4913.686360,N,01634.277450,E,7.455,333.33,230217,4.25,E,R,S*53
$GPZDA,114730.94,23,02,2017,,*6C
$GPHDT,77.94,T*38
$GPGST,114730.94,0.000,0.000,0.000,89.34,0.04,0.04,0.05*69
$PRDID,+003.11,-002.69,075F94$GPGGA,114732.94,4913.690066,N,01634.274391,E,4,15,0.0,349.155,M,44.831,M,,*6D
$GPRMC,114732.94,A,4913.690066,N,01634.274391,E,7.660,331.43,230217,4.25,E,R,S*5B
$GPZDA,114732.94,23,02,2017,,*6E
$GPHDT,78.98,T*3B
$GPGST,114732.94,0.000,0.000,0.000,89.61,0.04,0.04,0.05*6B
$PRDID,+003.94,-001.48,075298$GPGGA,114734.94,4913.693820,N,01634.271160,E,4,15,0.0,349.283,M,44.831,M,,*63
$GPRMC,114734.94,A,4913.693820,N,01634.271160,E,7.937,330.96,230217,4.25,E,R,S*59
$GPZDA,114734.94,23,02,2017,,*68
$GPHDT,82.06,T*39
$GPGST,114734.94,0.000,0.000,0.000,90.07,0.04,0.04,0.05*65
$PRDID,+003.60,-002.18,085F06$GPGGA,114736.93,4913.697730,N,01634.267845,E,4,14,0.0,349.350,M,44.831,M,,*6B
$GPRMC,114736.93,A,4913.697730,N,01634.267845,E,8.193,330.74,230217,4.25,E,R,S*5A
$GPZDA,114736.93,23,02,2017,,*6D
$GPHDT,85.55,T*38
$GPGST,114736.93,0.000,0.000,0.000,90.79,0.04,0.04,0.05*69
$PRDID,+003.93,-001.27,085C55$GPGGA,114738.94,4913.701732,N,01634.264457,E,4,14,0.0,349.407,M,44.831,M,,*67
$GPRMC,114738.94,A,4913.701732,N,01634.264457,E,8.282,332.71,230217,4.25,E,R,S*57
$GPZDA,114738.94,23,02,2017,,*64
$GPHDT,87.94,T*37
$GPGST,114738.94,0.000,0.000,0.000,91.27,0.04,0.04,0.05*6A
$PRDID,+003.72,-002.00,085594$GPGGA,114740.94,4913.705910,N,01634.261089,E,4,14,0.0,349.558,M,44.831,M,,*6B
$GPRMC,114740.94,A,4913.705910,N,01634.261089,E,8.474,332.31,230217,4.25,E,R,S*5B
$GPZDA,114740.94,23,02,2017,,*6B
$GPHDT,90.57,T*3E
$GPGST,114740.94,0.000,0.000,0.000,91.73,0.04,0.04,0.05*64
$PRDID,+002.86,-000.99,095D57$GPGGA,114742.95,4913.710097,N,01634.257869,E,4,13,0.0,349.660,M,44.831,M,,*66
$GPRMC,114742.95,A,4913.710097,N,01634.257869,E,8.363,335.22,230217,4.25,E,R,S*5D
$GPZDA,114742.95,23,02,2017,,*68
$GPHDT,92.92,T*35
$GPGST,114742.95,0.000,0.000,0.000,92.15,0.04,0.04,0.05*64
$PRDID,+002.43,-001.71,095392$GPGGA,114744.94,4913.714419,N,01634.255004,E,4,14,0.0,349.480,M,44.831,M,,*6D
$GPRMC,114744.94,A,4913.714419,N,01634.255004,E,8.737,337.44,230217,4.25,E,R,S*5A
$GPZDA,114744.94,23,02,2017,,*6F
$GPHDT,95.29,T*32
$GPGST,114744.94,0.000,0.000,0.000,92.66,0.04,0.04,0.05*67
$PRDID,+003.51,-000.92,095D29$GPGGA,114746.93,4913.718885,N,01634.252006,E,4,14,0.0,349.584,M,44.831,M,,*6D
$GPRMC,114746.93,A,4913.718885,N,01634.252006,E,8.711,335.76,230217,4.25,E,R,S*58
$GPZDA,114746.93,23,02,2017,,*6A
$GPHDT,96.83,T*31
$GPGST,114746.93,0.000,0.000,0.000,92.66,0.04,0.04,0.05*62
$PRDID,+002.78,-000.81,095583$GPGGA,114748.94,4913.723263,N,01634.249107,E,4,14,0.0,349.419,M,44.831,M,,*61
$GPRMC,114748.94,A,4913.723263,N,01634.249107,E,8.581,337.38,230217,4.25,E,R,S*52
$GPZDA,114748.94,23,02,2017,,*63
$GPHDT,97.40,T*3F
$GPGST,114748.94,0.000,0.000,0.000,92.79,0.04,0.04,0.05*65
$PRDID,+002.43,-001.63,095040$GPGGA,114750.94,4913.727699,N,01634.246322,E,4,14,0.0,349.315,M,44.831,M,,*6C
$GPRMC,114750.94,A,4913.727699,N,01634.246322,E,8.584,336.70,230217,4.25,E,R,S*5C
$GPZDA,114750.94,23,02,2017,,*6A
$GPHDT,97.58,T*36
$GPGST,114750.94,0.000,0.000,0.000,92.78,0.04,0.04,0.05*6D
$PRDID,+003.22,-001.09,095A58$GPGGA,114752.94,4913.732140,N,01634.243377,E,4,15,0.0,349.284,M,44.831,M,,*64
$GPRMC,114752.94,A,4913.732140,N,01634.243377,E,8.783,336.71,230217,4.25,E,R,S*58
$GPZDA,114752.94,23,02,2017,,*68
$GPHDT,96.76,T*3B
$GPGST,114752.94,0.000,0.000,0.000,92.75,0.04,0.04,0.05*62
$PRDID,+002.03,-001.60,095776$GPGGA,114754.94,4913.736092,N,01634.242599,E,4,15,0.0,349.173,M,44.831,M,,*64
$GPRMC,114754.94,A,4913.736092,N,01634.242599,E,6.078,18.04,230217,4.25,E,R,S*63
$GPZDA,114754.94,23,02,2017,,*6E
$GPHDT,113.54,T*07
$GPGST,114754.94,0.000,0.000,0.000,93.03,0.04,0.04,0.05*64
$PRDID,-006.59,+000.12,115954$GPGGA,114756.94,4913.738676,N,01634.245540,E,4,12,0.0,349.605,M,44.831,M,,*66
$GPRMC,114756.94,A,4913.738676,N,01634.245540,E,5.322,63.78,230217,4.25,E,R,S*68
$GPZDA,114756.94,23,02,2017,,*6C
$GPHDT,136.63,T*04
$GPGST,114756.94,0.000,0.000,0.000,92.57,0.04,0.04,0.05*66
$PRDID,-013.74,+007.37,135263$GPGGA,114758.94,4913.738191,N,01634.249549,E,4,12,0.0,349.508,M,44.831,M,,*6D
$GPRMC,114758.94,A,4913.738191,N,01634.249549,E,5.414,122.29,230217,4.25,E,R,S*5F
$GPZDA,114758.94,23,02,2017,,*62
$GPHDT,178.52,T*0C
$GPGST,114758.94,0.000,0.000,0.000,89.26,0.04,0.04,0.05*64
$PRDID,-007.15,-001.48,175852$GPGGA,114800.92,4913.735848,N,01634.253356,E,4,12,0.0,349.396,M,44.831,M,,*6B
$GPRMC,114800.92,A,4913.735848,N,01634.253356,E,6.964,140.68,230217,4.25,E,R,S*50
$GPZDA,114800.92,23,02,2017,,*66
$GPHDT,221.29,T*0F
$GPGST,114800.92,0.000,0.000,0.000,86.55,0.04,0.04,0.05*6B
$PRDID,-004.00,-006.05,225229$GPGGA,114802.93,4913.732496,N,01634.257038,E,4,10,0.0,349.536,M,44.831,M,,*61
$GPRMC,114802.93,A,4913.732496,N,01634.257038,E,7.574,147.40,230217,4.25,E,R,S*55
$GPZDA,114802.93,23,02,2017,,*65
$GPHDT,242.77,T*01
$GPGST,114802.93,0.000,0.000,0.000,88.27,0.04,0.04,0.06*60
$PRDID,-001.46,-006.34,245777$GPGGA,114804.94,4913.728980,N,01634.260654,E,4,10,0.0,349.771,M,44.831,M,,*68
$GPRMC,114804.94,A,4913.728980,N,01634.260654,E,7.815,144.72,230217,4.25,E,R,S*55
$GPZDA,114804.94,23,02,2017,,*64
$GPHDT,249.01,T*0B
$GPGST,114804.94,0.000,0.000,0.000,88.69,0.04,0.04,0.06*6B
$PRDID,-000.41,-006.30,245501$GPGGA,114806.92,4913.725454,N,01634.264358,E,4,12,0.0,349.630,M,44.831,M,,*6E
$GPRMC,114806.92,A,4913.725454,N,01634.264358,E,7.724,147.70,230217,4.25,E,R,S*59
$GPZDA,114806.92,23,02,2017,,*60
$GPHDT,250.71,T*04
$GPGST,114806.92,0.000,0.000,0.000,88.84,0.04,0.04,0.05*6F
$PRDID,-001.05,-006.17,255171$GPGGA,114808.92,4913.721664,N,01634.267768,E,4,12,0.0,349.270,M,44.831,M,,*61
$GPRMC,114808.92,A,4913.721664,N,01634.267768,E,7.778,152.14,230217,4.25,E,R,S*59
$GPZDA,114808.92,23,02,2017,,*6E
$GPHDT,253.72,T*04
$GPGST,114808.92,0.000,0.000,0.000,89.10,0.04,0.04,0.05*6D
$PRDID,-003.06,-007.21,255472$GPGGA,114810.92,4913.717678,N,01634.270668,E,4,12,0.0,349.180,M,44.831,M,,*6B
$GPRMC,114810.92,A,4913.717678,N,01634.270668,E,8.156,154.38,230217,4.25,E,R,S*52
$GPZDA,114810.92,23,02,2017,,*67
$GPHDT,254.09,T*0F
$GPGST,114810.92,0.000,0.000,0.000,89.26,0.04,0.04,0.05*61
$PRDID,+000.60,-007.61,255509$GPGGA,114812.91,4913.713552,N,01634.273811,E,4,12,0.0,349.156,M,44.831,M,,*6D
$GPRMC,114812.91,A,4913.713552,N,01634.273811,E,8.326,153.44,230217,4.25,E,R,S*56
$GPZDA,114812.91,23,02,2017,,*66
$GPHDT,254.58,T*0B
$GPGST,114812.91,0.000,0.000,0.000,89.30,0.04,0.04,0.05*67
$PRDID,+002.44,-006.25,255058$GPGGA,114814.92,4913.709427,N,01634.277061,E,4,12,0.0,349.203,M,44.831,M,,*68
$GPRMC,114814.92,A,4913.709427,N,01634.277061,E,8.455,153.33,230217,4.25,E,R,S*53
$GPZDA,114814.92,23,02,2017,,*63
$GPHDT,254.66,T*06
$GPGST,114814.92,0.000,0.000,0.000,89.34,0.04,0.04,0.05*66
$PRDID,+000.24,-006.45,255266$GPGGA,114816.92,4913.705165,N,01634.280185,E,4,11,0.0,349.288,M,44.831,M,,*66
$GPRMC,114816.92,A,4913.705165,N,01634.280185,E,8.554,155.90,230217,4.25,E,R,S*52
$GPZDA,114816.92,23,02,2017,,*61
$GPHDT,254.65,T*05
$GPGST,114816.92,0.000,0.000,0.000,89.40,0.04,0.04,0.05*67
$PRDID,-000.07,-006.53,255265$GPGGA,114818.92,4913.700789,N,01634.283184,E,4,11,0.0,349.346,M,44.831,M,,*68
$GPRMC,114818.92,A,4913.700789,N,01634.283184,E,8.761,155.35,230217,4.25,E,R,S*54
$GPZDA,114818.92,23,02,2017,,*6F
$GPHDT,254.35,T*00
$GPGST,114818.92,0.000,0.000,0.000,89.28,0.04,0.04,0.05*67
$PRDID,+000.68,-007.32,255B35$GPGGA,114820.92,4913.696375,N,01634.286510,E,4,12,0.0,349.549,M,44.831,M,,*6C
$GPRMC,114820.92,A,4913.696375,N,01634.286510,E,8.847,154.16,230217,4.25,E,R,S*51
$GPZDA,114820.92,23,02,2017,,*64
$GPHDT,254.04,T*02
$GPGST,114820.92,0.000,0.000,0.000,89.21,0.04,0.04,0.05*65
$PRDID,-001.35,-007.06,255304$GPGGA,114822.92,4913.691940,N,01634.289562,E,4,12,0.0,349.619,M,44.831,M,,*69
$GPRMC,114822.92,A,4913.691940,N,01634.289562,E,8.794,156.82,230217,4.25,E,R,S*5C
$GPZDA,114822.92,23,02,2017,,*66
$GPHDT,253.49,T*0C
$GPGST,114822.92,0.000,0.000,0.000,89.09,0.04,0.04,0.05*6D
$PRDID,-000.79,-007.92,255749$GPGGA,114824.92,4913.687448,N,01634.292453,E,4,12,0.0,349.582,M,44.831,M,,*65
$GPRMC,114824.92,A,4913.687448,N,01634.292453,E,8.733,156.24,230217,4.25,E,R,S*50
$GPZDA,114824.92,23,02,2017,,*60
$GPHDT,252.62,T*04
$GPGST,114824.92,0.000,0.000,0.000,88.92,0.04,0.04,0.05*68
$PRDID,+000.30,-008.69,255762$GPGGA,114826.91,4913.682935,N,01634.295684,E,4,12,0.0,349.642,M,44.831,M,,*66
$GPRMC,114826.91,A,4913.682935,N,01634.295684,E,9.151,153.86,230217,4.25,E,R,S*52
$GPZDA,114826.91,23,02,2017,,*61
$GPHDT,252.58,T*0D
$GPGST,114826.91,0.000,0.000,0.000,89.09,0.04,0.04,0.05*6A
$PRDID,+000.69,-007.71,255D58$GPGGA,114828.92,4913.678397,N,01634.299201,E,4,12,0.0,349.705,M,44.831,M,,*6B
$GPRMC,114828.92,A,4913.678397,N,01634.299201,E,9.256,153.75,230217,4.25,E,R,S*55
$GPZDA,114828.92,23,02,2017,,*6C
$GPHDT,252.67,T*01
$GPGST,114828.92,0.000,0.000,0.000,89.08,0.04,0.04,0.05*66
$PRDID,+000.60,-007.77,255267$GPGGA,114830.92,4913.673806,N,01634.302780,E,4,12,0.0,349.675,M,44.831,M,,*63
$GPRMC,114830.92,A,4913.673806,N,01634.302780,E,9.422,152.76,230217,4.25,E,R,S*5C
$GPZDA,114830.92,23,02,2017,,*65
$GPHDT,252.46,T*02
$GPGST,114830.92,0.000,0.000,0.000,88.97,0.04,0.04,0.05*68
$PRDID,-001.49,-007.96,255146$GPGGA,114832.92,4913.669158,N,01634.306266,E,4,12,0.0,349.628,M,44.831,M,,*69
$GPRMC,114832.92,A,4913.669158,N,01634.306266,E,9.280,155.55,230217,4.25,E,R,S*56
$GPZDA,114832.92,23,02,2017,,*67
$GPHDT,250.53,T*04
$GPGST,114832.92,0.000,0.000,0.000,88.84,0.04,0.04,0.05*68
$PRDID,-001.09,-007.28,255053$GPGGA,114834.91,4913.664454,N,01634.309330,E,4,12,0.0,349.553,M,44.831,M,,*6A
$GPRMC,114834.91,A,4913.664454,N,01634.309330,E,9.208,159.24,230217,4.25,E,R,S*50
$GPZDA,114834.91,23,02,2017,,*62
$GPHDT,252.08,T*08
$GPGST,114834.91,0.000,0.000,0.000,89.09,0.04,0.04,0.05*69
$PRDID,-001.12,-007.69,255F08$GPGGA,114836.92,4913.659706,N,01634.312332,E,4,12,0.0,349.526,M,44.831,M,,*6B
$GPRMC,114836.92,A,4913.659706,N,01634.312332,E,9.267,156.03,230217,4.25,E,R,S*50
$GPZDA,114836.92,23,02,2017,,*63
$GPHDT,253.46,T*03
$GPGST,114836.92,0.000,0.000,0.000,89.26,0.04,0.04,0.05*65
$PRDID,-000.69,-006.52,255B46$GPGGA,114838.91,4913.656151,N,01634.317932,E,4,12,0.0,349.592,M,44.831,M,,*6D
$GPRMC,114838.91,A,4913.656151,N,01634.317932,E,9.896,109.63,230217,4.25,E,R,S*51
$GPZDA,114838.91,23,02,2017,,*6E
$GPHDT,225.48,T*0C
$GPGST,114838.91,0.000,0.000,0.000,85.71,0.04,0.04,0.05*66
$PRDID,+009.64,-002.34,225D48$GPGGA,114840.91,4913.656869,N,01634.325702,E,4,10,0.0,349.731,M,44.831,M,,*65
$GPRMC,114840.91,A,4913.656869,N,01634.325702,E,9.448,51.04,230217,4.25,E,R,S*62
$GPZDA,114840.91,23,02,2017,,*61
$GPHDT,172.13,T*03
$GPGST,114840.91,0.000,0.000,0.000,89.22,0.04,0.04,0.05*63
$PRDID,+012.42,+006.48,175913$GPGGA,114842.92,4913.661418,N,01634.328914,E,4,10,0.0,349.536,M,44.831,M,,*6B
$GPRMC,114842.92,A,4913.661418,N,01634.328914,E,8.958,3.63,230217,4.25,E,R,S*52
$GPZDA,114842.92,23,02,2017,,*60
$GPHDT,121.18,T*0E
$GPGST,114842.92,0.000,0.000,0.000,92.67,0.04,0.04,0.05*69
$PRDID,+008.59,+003.82,125B18$GPGGA,114844.91,4913.666200,N,01634.327571,E,4,10,0.0,349.749,M,44.831,M,,*6C
$GPRMC,114844.91,A,4913.666200,N,01634.327571,E,8.897,337.47,230217,4.25,E,R,S*5F
$GPZDA,114844.91,23,02,2017,,*65
$GPHDT,83.54,T*3F
$GPGST,114844.91,0.000,0.000,0.000,90.70,0.04,0.04,0.05*68
$PRDID,+007.38,-001.62,085854$GPGGA,114846.92,4913.670712,N,01634.323818,E,4,09,0.0,349.342,M,44.831,M,,*6D
$GPRMC,114846.92,A,4913.670712,N,01634.323818,E,9.454,328.93,230217,4.25,E,R,S*5C
$GPZDA,114846.92,23,02,2017,,*64
$GPHDT,70.91,T*3A
$GPGST,114846.92,0.000,0.000,0.000,89.92,0.04,0.04,0.05*6D
$PRDID,+003.89,-002.82,075B91$GPGGA,114848.92,4913.675274,N,01634.319652,E,4,09,0.0,349.146,M,44.831,M,,*6C
$GPRMC,114848.92,A,4913.675274,N,01634.319652,E,9.601,331.16,230217,4.25,E,R,S*5C
$GPZDA,114848.92,23,02,2017,,*6A
$GPHDT,67.47,T*37
$GPGST,114848.92,0.000,0.000,0.000,89.77,0.04,0.04,0.05*68
$PRDID,+001.14,-004.01,065047$GPGGA,114850.91,4913.680033,N,01634.315689,E,4,11,0.0,348.903,M,44.831,M,,*66
$GPRMC,114850.91,A,4913.680033,N,01634.315689,E,9.868,329.97,230217,4.25,E,R,S*56
$GPZDA,114850.91,23,02,2017,,*60
$GPHDT,69.17,T*3C
$GPGST,114850.91,0.000,0.000,0.000,89.79,0.04,0.04,0.05*6C
$PRDID,+002.71,-003.18,065F17$GPGGA,114852.92,4913.684809,N,01634.311416,E,4,12,0.0,348.989,M,44.831,M,,*63
$GPRMC,114852.92,A,4913.684809,N,01634.311416,E,9.817,329.12,230217,4.25,E,R,S*57
$GPZDA,114852.92,23,02,2017,,*61
$GPHDT,73.93,T*3B
$GPGST,114852.92,0.000,0.000,0.000,90.08,0.04,0.04,0.05*63
$PRDID,+003.33,-001.79,075D93$GPGGA,114854.91,4913.689447,N,01634.307060,E,4,13,0.0,349.074,M,44.831,M,,*64
$GPRMC,114854.91,A,4913.689447,N,01634.307060,E,9.749,328.65,230217,4.25,E,R,S*5E
$GPZDA,114854.91,23,02,2017,,*64
$GPHDT,77.16,T*32
$GPGST,114854.91,0.000,0.000,0.000,90.29,0.04,0.04,0.05*65
$PRDID,+003.39,-001.45,075816$GPGGA,114856.92,4913.694096,N,01634.302825,E,4,12,0.0,348.915,M,44.831,M,,*63
$GPRMC,114856.92,A,4913.694096,N,01634.302825,E,9.657,329.53,230217,4.25,E,R,S*5D
$GPZDA,114856.92,23,02,2017,,*65
$GPHDT,80.81,T*34
$GPGST,114856.92,0.000,0.000,0.000,90.45,0.04,0.04,0.05*6E
$PRDID,+003.36,-000.95,085B81$GPGGA,114858.92,4913.698720,N,01634.298652,E,4,12,0.0,348.827,M,44.831,M,,*67
$GPRMC,114858.92,A,4913.698720,N,01634.298652,E,9.704,329.83,230217,4.25,E,R,S*53
$GPZDA,114858.92,23,02,2017,,*6B
$GPHDT,84.42,T*3F
$GPGST,114858.92,0.000,0.000,0.000,90.68,0.04,0.04,0.05*6F
$PRDID,+002.90,-000.63,085F42$GPGGA,114900.92,4913.703434,N,01634.294715,E,4,14,0.0,348.921,M,44.831,M,,*61
$GPRMC,114900.92,A,4913.703434,N,01634.294715,E,9.666,332.90,230217,4.25,E,R,S*59
$GPZDA,114900.92,23,02,2017,,*67
$GPHDT,88.19,T*3D
$GPGST,114900.92,0.000,0.000,0.000,91.03,0.04,0.04,0.05*6F
$PRDID,+002.36,-000.35,085019$GPGGA,114902.92,4913.708250,N,01634.291137,E,4,15,0.0,349.087,M,44.831,M,,*6A
$GPRMC,114902.92,A,4913.708250,N,01634.291137,E,9.567,335.74,230217,4.25,E,R,S*58
$GPZDA,114902.92,23,02,2017,,*65
$GPHDT,90.59,T*30
$GPGST,114902.92,0.000,0.000,0.000,91.06,0.04,0.04,0.05*68
$PRDID,+002.10,-000.45,095359$GPGGA,114904.92,4913.713151,N,01634.287895,E,4,14,0.0,348.942,M,44.831,M,,*62
$GPRMC,114904.92,A,4913.713151,N,01634.287895,E,9.696,336.90,230217,4.25,E,R,S*54
$GPZDA,114904.92,23,02,2017,,*63
$GPHDT,92.59,T*32
$GPGST,114904.92,0.000,0.000,0.000,91.23,0.04,0.04,0.05*69
$PRDID,+003.33,-000.64,095059$GPGGA,114906.92,4913.717968,N,01634.284694,E,4,14,0.0,348.800,M,44.831,M,,*6D
$GPRMC,114906.92,A,4913.717968,N,01634.284694,E,9.360,337.31,230217,4.25,E,R,S*5A
$GPZDA,114906.92,23,02,2017,,*61
$GPHDT,94.36,T*3D
$GPGST,114906.92,0.000,0.000,0.000,91.28,0.04,0.04,0.05*60
$PRDID,+001.57,-002.18,095936$GPGGA,114908.92,4913.722816,N,01634.281887,E,4,14,0.0,348.807,M,44.831,M,,*63
$GPRMC,114908.92,A,4913.722816,N,01634.281887,E,9.546,340.74,230217,4.25,E,R,S*50
$GPZDA,114908.92,23,02,2017,,*6F
$GPHDT,94.24,T*3E
$GPGST,114908.92,0.000,0.000,0.000,91.25,0.04,0.04,0.05*63
$PRDID,+003.11,-002.78,095F24$GPGGA,114910.92,4913.727908,N,01634.279071,E,4,13,0.0,349.011,M,44.831,M,,*6E
$GPRMC,114910.92,A,4913.727908,N,01634.279071,E,9.849,339.00,230217,4.25,E,R,S*5B
$GPZDA,114910.92,23,02,2017,,*66
$GPHDT,93.11,T*3F
$GPGST,114910.92,0.000,0.000,0.000,91.02,0.04,0.04,0.05*6F
$PRDID,+005.18,-001.87,095311$GPGGA,114912.92,4913.733058,N,01634.275791,E,4,13,0.0,349.129,M,44.831,M,,*6A
$GPRMC,114912.92,A,4913.733058,N,01634.275791,E,10.100,336.41,230217,4.25,E,R,S*63
$GPZDA,114912.92,23,02,2017,,*64
$GPHDT,92.39,T*34
$GPGST,114912.92,0.000,0.000,0.000,91.03,0.04,0.04,0.05*6C
$PRDID,+004.05,-002.07,095539$GPGGA,114914.92,4913.738077,N,01634.272167,E,4,14,0.0,349.169,M,44.831,M,,*61
$GPRMC,114914.92,A,4913.738077,N,01634.272167,E,9.803,334.96,230217,4.25,E,R,S*51
$GPZDA,114914.92,23,02,2017,,*62
$GPHDT,91.10,T*3C
$GPGST,114914.92,0.000,0.000,0.000,91.14,0.04,0.04,0.05*6C
$PRDID,+002.44,-002.54,095010$GPGGA,114916.92,4913.742857,N,01634.269699,E,4,11,0.0,348.888,M,44.831,M,,*6A
$GPRMC,114916.92,A,4913.742857,N,01634.269699,E,7.630,2.09,230217,4.25,E,R,S*58
$GPZDA,114916.92,23,02,2017,,*60
$GPHDT,104.37,T*04
$GPGST,114916.92,0.000,0.000,0.000,90.96,0.04,0.04,0.05*65
$PRDID,-008.78,+000.43,105037$GPGGA,114918.92,4913.746213,N,01634.271919,E,4,10,0.0,349.087,M,44.831,M,,*63
$GPRMC,114918.92,A,4913.746213,N,01634.271919,E,5.889,50.56,230217,4.25,E,R,S*65
$GPZDA,114918.92,23,02,2017,,*6E
$GPHDT,133.46,T*06
$GPGST,114918.92,0.000,0.000,0.000,90.74,0.04,0.04,0.05*67
$PRDID,-018.39,+008.12,135846$GPGGA,114920.92,4913.745897,N,01634.275936,E,4,12,0.0,349.390,M,44.831,M,,*63
$GPRMC,114920.92,A,4913.745897,N,01634.275936,E,5.494,126.57,230217,4.25,E,R,S*53
$GPZDA,114920.92,23,02,2017,,*65
$GPHDT,173.14,T*05
$GPGST,114920.92,0.000,0.000,0.000,89.52,0.04,0.04,0.05*60
$PRDID,-007.20,+000.04,175114$GPGGA,114922.92,4913.743212,N,01634.279758,E,4,12,0.0,349.263,M,44.831,M,,*67
$GPRMC,114922.92,A,4913.743212,N,01634.279758,E,7.841,141.66,230217,4.25,E,R,S*5F
$GPZDA,114922.92,23,02,2017,,*67
$GPHDT,215.94,T*0E
$GPGST,114922.92,0.000,0.000,0.000,88.56,0.04,0.04,0.05*67
$PRDID,-003.25,-005.19,215C94$GPGGA,114924.92,4913.739475,N,01634.283790,E,4,11,0.0,349.291,M,44.831,M,,*64
$GPRMC,114924.92,A,4913.739475,N,01634.283790,E,8.662,145.37,230217,4.25,E,R,S*52
$GPZDA,114924.92,23,02,2017,,*61
$GPHDT,239.58,T*00
$GPGST,114924.92,0.000,0.000,0.000,89.31,0.04,0.04,0.05*61
$PRDID,-000.70,-007.20,235758$GPGGA,114926.92,4913.735553,N,01634.288311,E,4,12,0.0,349.155,M,44.831,M,,*61
$GPRMC,114926.92,A,4913.735553,N,01634.288311,E,8.904,141.59,230217,4.25,E,R,S*5C
$GPZDA,114926.92,23,02,2017,,*63
$GPHDT,247.02,T*06
$GPGST,114926.92,0.000,0.000,0.000,89.63,0.04,0.04,0.05*64
$PRDID,+000.51,-006.57,245302$GPGGA,114928.92,4913.731586,N,01634.292648,E,4,13,0.0,348.744,M,44.831,M,,*67
$GPRMC,114928.92,A,4913.731586,N,01634.292648,E,8.665,146.45,230217,4.25,E,R,S*5E
$GPZDA,114928.92,23,02,2017,,*6D
$GPHDT,249.85,T*07
$GPGST,114928.92,0.000,0.000,0.000,89.90,0.04,0.04,0.04*67
$PRDID,-000.84,-007.04,245A85$GPGGA,114930.92,4913.727416,N,01634.296241,E,4,12,0.0,348.262,M,44.831,M,,*68
$GPRMC,114930.92,A,4913.727416,N,01634.296241,E,8.786,153.99,230217,4.25,E,R,S*58
$GPZDA,114930.92,23,02,2017,,*64
$GPHDT,253.02,T*03
$GPGST,114930.92,0.000,0.000,0.000,90.16,0.04,0.04,0.05*69
$PRDID,-000.42,-008.32,255A02$GPGGA,114932.91,4913.722970,N,01634.299621,E,4,12,0.0,347.968,M,44.831,M,,*62
$GPRMC,114932.91,A,4913.722970,N,01634.299621,E,9.105,153.11,230217,4.25,E,R,S*50
$GPZDA,114932.91,23,02,2017,,*65
$GPHDT,254.80,T*0E
$GPGST,114932.91,0.000,0.000,0.000,90.19,0.04,0.04,0.05*67
$PRDID,+000.08,-007.90,255580$GPGGA,114934.92,4913.718440,N,01634.303005,E,4,11,0.0,347.765,M,44.831,M,,*62
$GPRMC,114934.92,A,4913.718440,N,01634.303005,E,9.031,154.48,230217,4.25,E,R,S*5D
$GPZDA,114934.92,23,02,2017,,*60
$GPHDT,255.00,T*07
$GPGST,114934.92,0.000,0.000,0.000,90.16,0.04,0.04,0.05*6D
$PRDID,-000.39,-008.95,255B00$GPGGA,114936.92,4913.713859,N,01634.306297,E,4,11,0.0,347.750,M,44.831,M,,*65
$GPRMC,114936.92,A,4913.713859,N,01634.306297,E,9.174,155.50,230217,4.25,E,R,S*54
$GPZDA,114936.92,23,02,2017,,*62
$GPHDT,255.09,T*0E
$GPGST,114936.92,0.000,0.000,0.000,90.15,0.04,0.04,0.05*6C
$PRDID,-001.25,-010.05,255709$GPGGA,114938.91,4913.709094,N,01634.309516,E,4,11,0.0,347.886,M,44.831,M,,*6F
$GPRMC,114938.91,A,4913.709094,N,01634.309516,E,9.492,155.63,230217,4.25,E,R,S*57
$GPZDA,114938.91,23,02,2017,,*6F
$GPHDT,254.58,T*0B
$GPGST,114938.91,0.000,0.000,0.000,90.14,0.04,0.04,0.05*60
$PRDID,-000.01,-009.21,255E58$GPGGA,114940.92,4913.704236,N,01634.312904,E,4,12,0.0,348.173,M,44.831,M,,*6E
$GPRMC,114940.92,A,4913.704236,N,01634.312904,E,9.728,155.91,230217,4.25,E,R,S*56
$GPZDA,114940.92,23,02,2017,,*63
$GPHDT,253.68,T*0F
$GPGST,114940.92,0.000,0.000,0.000,90.15,0.04,0.04,0.05*6D
$PRDID,-000.47,-008.99,255E68$GPGGA,114942.92,4913.699304,N,01634.316303,E,4,12,0.0,348.519,M,44.831,M,,*68
$GPRMC,114942.92,A,4913.699304,N,01634.316303,E,9.724,156.37,230217,4.25,E,R,S*5B
$GPZDA,114942.92,23,02,2017,,*61
$GPHDT,252.15,T*04
$GPGST,114942.92,0.000,0.000,0.000,90.01,0.04,0.04,0.05*6A
$PRDID,-000.66,-008.50,255815$GPGGA,114944.91,4913.694369,N,01634.319751,E,4,12,0.0,348.803,M,44.831,M,,*61
$GPRMC,114944.91,A,4913.694369,N,01634.319751,E,9.842,154.67,230217,4.25,E,R,S*5C
$GPZDA,114944.91,23,02,2017,,*64
$GPHDT,250.41,T*07
$GPGST,114944.91,0.000,0.000,0.000,89.85,0.04,0.04,0.05*6B
$PRDID,-001.17,-009.78,255441$GPGGA,114946.92,4913.689384,N,01634.323253,E,4,10,0.0,348.862,M,44.831,M,,*64
$GPRMC,114946.92,A,4913.689384,N,01634.323253,E,9.818,155.68,230217,4.25,E,R,S*5D
$GPZDA,114946.92,23,02,2017,,*65
$GPHDT,248.17,T*0D
$GPGST,114946.92,0.000,0.000,0.000,89.77,0.04,0.04,0.05*67
$PRDID,-001.18,-009.02,245617$GPGGA,114948.92,4913.684429,N,01634.326759,E,4,10,0.0,348.858,M,44.831,M,,*64
$GPRMC,114948.92,A,4913.684429,N,01634.326759,E,9.713,155.40,230217,4.25,E,R,S*5A
$GPZDA,114948.92,23,02,2017,,*6B
$GPHDT,248.03,T*08
$GPGST,114948.92,0.000,0.000,0.000,89.75,0.04,0.04,0.05*6B
$PRDID,-001.13,-008.93,245403$GPGGA,114950.92,4913.679553,N,01634.330131,E,4,10,0.0,348.722,M,44.831,M,,*6E
$GPRMC,114950.92,A,4913.679553,N,01634.330131,E,9.643,154.68,230217,4.25,E,R,S*5D
$GPZDA,114950.92,23,02,2017,,*62
$GPHDT,247.28,T*0E
$GPGST,114950.92,0.000,0.000,0.000,89.70,0.04,0.04,0.05*67
$PRDID,-000.04,-009.45,245928$GPGGA,114952.91,4913.674674,N,01634.333698,E,4,09,0.0,348.622,M,44.831,M,,*6A
$GPRMC,114952.91,A,4913.674674,N,01634.333698,E,9.790,155.58,230217,4.25,E,R,S*5D
$GPZDA,114952.91,23,02,2017,,*63
$GPHDT,247.00,T*04
$GPGST,114952.91,0.000,0.000,0.000,89.69,0.04,0.04,0.05*6E
$PRDID,-001.04,-009.43,245E00$GPGGA,114954.92,4913.669756,N,01634.337276,E,4,11,0.0,348.627,M,44.831,M,,*6E
$GPRMC,114954.92,A,4913.669756,N,01634.337276,E,9.833,153.39,230217,4.25,E,R,S*52
$GPZDA,114954.92,23,02,2017,,*66
$GPHDT,246.58,T*08
$GPGST,114954.92,0.000,0.000,0.000,89.61,0.04,0.04,0.05*63
$PRDID,+000.44,-008.81,245258$GPGGA,114956.92,4913.665390,N,01634.342212,E,4,11,0.0,348.545,M,44.831,M,,*69
$GPRMC,114956.92,A,4913.665390,N,01634.342212,E,10.218,122.05,230217,4.25,E,R,S*60
$GPZDA,114956.92,23,02,2017,,*64
$GPHDT,226.89,T*02
$GPGST,114956.92,0.000,0.000,0.000,88.55,0.04,0.04,0.05*67
$PRDID,+013.49,-005.09,225089$GPGGA,114958.92,4913.664784,N,01634.350418,E,4,12,0.0,348.772,M,44.831,M,,*6D
$GPRMC,114958.92,A,4913.664784,N,01634.350418,E,9.668,64.44,230217,4.25,E,R,S*6C
$GPZDA,114958.92,23,02,2017,,*6A
$GPHDT,184.96,T*07
$GPGST,114958.92,0.000,0.000,0.000,88.31,0.04,0.04,0.05*6B
$PRDID,+009.53,+004.77,185D96$GPGGA,115000.91,4913.668561,N,01634.354957,E,4,11,0.0,348.930,M,44.831,M,,*67
$GPRMC,115000.91,A,4913.668561,N,01634.354957,E,8.651,15.21,230217,4.25,E,R,S*63
$GPZDA,115000.91,23,02,2017,,*6C
$GPHDT,131.92,T*0D
$GPGST,115000.91,0.000,0.000,0.000,91.37,0.04,0.04,0.05*63
$PRDID,+007.27,+003.42,135192$GPGGA,115002.91,4913.673290,N,01634.354835,E,4,09,0.0,349.195,M,44.831,M,,*6C
$GPRMC,115002.91,A,4913.673290,N,01634.354835,E,8.845,345.95,230217,4.25,E,R,S*55
$GPZDA,115002.91,23,02,2017,,*6E
$GPHDT,90.44,T*3C
$GPGST,115002.91,0.000,0.000,0.000,91.01,0.04,0.04,0.05*64
$PRDID,+006.00,-000.20,095544$GPGGA,115004.92,4913.678051,N,01634.351997,E,4,12,0.0,349.343,M,44.831,M,,*62
$GPRMC,115004.92,A,4913.678051,N,01634.351997,E,9.499,333.05,230217,4.25,E,R,S*5C
$GPZDA,115004.92,23,02,2017,,*6B
$GPHDT,70.50,T*37
$GPGST,115004.92,0.000,0.000,0.000,90.11,0.04,0.04,0.05*61
$PRDID,+004.71,-002.01,075050$GPGGA,115006.92,4913.682823,N,01634.347789,E,4,12,0.0,349.073,M,44.831,M,,*6E
$GPRMC,115006.92,A,4913.682823,N,01634.347789,E,10.186,329.46,230217,4.25,E,R,S*6F
$GPZDA,115006.92,23,02,2017,,*69
$GPHDT,66.45,T*34
$GPGST,115006.92,0.000,0.000,0.000,89.94,0.04,0.04,0.05*66
$PRDID,+001.51,-002.02,065445$GPGGA,115008.92,4913.687727,N,01634.343460,E,4,12,0.0,348.736,M,44.831,M,,*69
$GPRMC,115008.92,A,4913.687727,N,01634.343460,E,10.271,330.97,230217,4.25,E,R,S*60
$GPZDA,115008.92,23,02,2017,,*67
$GPHDT,67.34,T*33
$GPGST,115008.92,0.000,0.000,0.000,89.99,0.04,0.04,0.05*65
$PRDID,+001.59,-002.25,065934$GPGGA,115010.91,4913.692752,N,01634.339332,E,4,12,0.0,348.546,M,44.831,M,,*6D
$GPRMC,115010.91,A,4913.692752,N,01634.339332,E,10.369,332.53,230217,4.25,E,R,S*63
$GPZDA,115010.91,23,02,2017,,*6D
$GPHDT,71.31,T*31
$GPGST,115010.91,0.000,0.000,0.000,90.17,0.04,0.04,0.05*61
$PRDID,+002.22,-001.53,075431$GPGGA,115012.93,4913.697862,N,01634.335220,E,4,13,0.0,348.623,M,44.831,M,,*6B
$GPRMC,115012.93,A,4913.697862,N,01634.335220,E,10.291,331.93,230217,4.25,E,R,S*6D
$GPZDA,115012.93,23,02,2017,,*6D
$GPHDT,76.12,T*37
$GPGST,115012.93,0.000,0.000,0.000,90.34,0.04,0.04,0.05*60
$PRDID,+002.35,-000.52,075212$GPGGA,115014.91,4913.702775,N,01634.331199,E,4,14,0.0,348.487,M,44.831,M,,*65
$GPRMC,115014.91,A,4913.702775,N,01634.331199,E,9.982,332.40,230217,4.25,E,R,S*54
$GPZDA,115014.91,23,02,2017,,*69
$GPHDT,79.66,T*3B
$GPGST,115014.91,0.000,0.000,0.000,90.51,0.04,0.03,0.04*61
$PRDID,+001.98,-000.86,075F66$GPGGA,115016.92,4913.707699,N,01634.327308,E,4,14,0.0,348.327,M,44.831,M,,*62
$GPRMC,115016.92,A,4913.707699,N,01634.327308,E,9.920,332.65,230217,4.25,E,R,S*51
$GPZDA,115016.92,23,02,2017,,*68
$GPHDT,82.08,T*37
$GPGST,115016.92,0.000,0.000,0.000,90.61,0.04,0.03,0.04*63
$PRDID,+002.58,+000.04,085C08$GPGGA,115018.92,4913.712573,N,01634.323471,E,4,14,0.0,348.161,M,44.831,M,,*62
$GPRMC,115018.92,A,4913.712573,N,01634.323471,E,9.896,332.98,230217,4.25,E,R,S*5F
$GPZDA,115018.92,23,02,2017,,*66
$GPHDT,84.50,T*3C
$GPGST,115018.92,0.000,0.000,0.000,90.71,0.04,0.03,0.04*6C
$PRDID,+002.70,-000.17,085250$GPGGA,115020.92,4913.717489,N,01634.319694,E,4,15,0.0,348.147,M,44.831,M,,*6D
$GPRMC,115020.92,A,4913.717489,N,01634.319694,E,9.901,334.05,230217,4.25,E,R,S*58
$GPZDA,115020.92,23,02,2017,,*6D
$GPHDT,86.93,T*31
$GPGST,115020.92,0.000,0.000,0.000,90.75,0.04,0.04,0.05*65
$PRDID,+001.85,-000.08,085593$GPGGA,115022.92,4913.722472,N,01634.316097,E,4,13,0.0,348.074,M,44.831,M,,*60
$GPRMC,115022.92,A,4913.722472,N,01634.316097,E,9.983,334.86,230217,4.25,E,R,S*53
$GPZDA,115022.92,23,02,2017,,*6F
$GPHDT,87.94,T*37
$GPGST,115022.92,0.000,0.000,0.000,90.79,0.04,0.04,0.05*6B
$PRDID,+002.45,+000.16,085394$GPGGA,115024.92,4913.727510,N,01634.312492,E,4,14,0.0,348.261,M,44.831,M,,*62
$GPRMC,115024.92,A,4913.727510,N,01634.312492,E,10.040,335.10,230217,4.25,E,R,S*60
$GPZDA,115024.92,23,02,2017,,*69
$GPHDT,89.55,T*34
$GPGST,115024.92,0.000,0.000,0.000,90.83,0.04,0.04,0.05*68
$PRDID,+002.49,+000.21,085B55$GPGGA,115026.92,4913.732613,N,01634.308891,E,4,13,0.0,348.181,M,44.831,M,,*6A
$GPRMC,115026.92,A,4913.732613,N,01634.308891,E,10.122,335.81,230217,4.25,E,R,S*6F
$GPZDA,115026.92,23,02,2017,,*6B
$GPHDT,90.33,T*3C
$GPGST,115026.92,0.000,0.000,0.000,90.85,0.04,0.04,0.05*6C
$PRDID,+001.54,+000.15,095333$GPGGA,115028.92,4913.737787,N,01634.305473,E,4,13,0.0,348.420,M,44.831,M,,*6E
$GPRMC,115028.92,A,4913.737787,N,01634.305473,E,10.072,337.24,230217,4.25,E,R,S*6C
$GPZDA,115028.92,23,02,2017,,*65
$GPHDT,90.86,T*32
$GPGST,115028.92,0.000,0.000,0.000,90.87,0.04,0.04,0.05*60
$PRDID,+002.32,+000.81,095D86$GPGGA,115030.92,4913.742964,N,01634.302082,E,4,15,0.0,348.259,M,44.831,M,,*65
$GPRMC,115030.92,A,4913.742964,N,01634.302082,E,10.278,336.18,230217,4.25,E,R,S*6F
$GPZDA,115030.92,23,02,2017,,*6C
$GPHDT,91.23,T*3C
$GPGST,115030.92,0.000,0.000,0.000,90.95,0.04,0.03,0.04*6C
$PRDID,+003.53,+000.56,095123$GPGGA,115032.92,4913.748142,N,01634.298255,E,4,13,0.0,348.498,M,44.831,M,,*66
$GPRMC,115032.92,A,4913.748142,N,01634.298255,E,10.428,333.42,230217,4.25,E,R,S*68
$GPZDA,115032.92,23,02,2017,,*6E
$GPHDT,91.29,T*36
$GPGST,115032.92,0.000,0.000,0.000,90.84,0.04,0.04,0.05*68
$PRDID,+002.09,-000.24,095C29$GPGGA,115034.92,4913.752738,N,01634.297412,E,4,11,0.0,348.469,M,44.831,M,,*66
$GPRMC,115034.92,A,4913.752738,N,01634.297412,E,7.058,20.07,230217,4.25,E,R,S*61
$GPZDA,115034.92,23,02,2017,,*68
$GPHDT,110.41,T*00
$GPGST,115034.92,0.000,0.000,0.000,90.66,0.04,0.04,0.05*62
$PRDID,-008.18,+002.25,115441$GPGGA,115036.92,4913.755147,N,01634.300952,E,4,11,0.0,348.592,M,44.831,M,,*6E
$GPRMC,115036.92,A,4913.755147,N,01634.300952,E,5.385,88.39,230217,4.25,E,R,S*62
$GPZDA,115036.92,23,02,2017,,*6A
$GPHDT,153.88,T*02
$GPGST,115036.92,0.000,0.000,0.000,90.06,0.04,0.04,0.05*66
$PRDID,-011.06,+006.18,155988$GPGGA,115038.92,4913.753702,N,01634.305072,E,4,12,0.0,348.764,M,44.831,M,,*67
$GPRMC,115038.92,A,4913.753702,N,01634.305072,E,6.478,134.84,230217,4.25,E,R,S*55
$GPZDA,115038.92,23,02,2017,,*64
$GPHDT,190.84,T*01
$GPGST,115038.92,0.000,0.000,0.000,89.04,0.04,0.04,0.05*62
$PRDID,-008.87,-002.74,195084$GPGGA,115040.92,4913.750420,N,01634.308769,E,4,13,0.0,348.620,M,44.831,M,,*68
$GPRMC,115040.92,A,4913.750420,N,01634.308769,E,8.122,147.03,230217,4.25,E,R,S*55
$GPZDA,115040.92,23,02,2017,,*6B
$GPHDT,230.07,T*03
$GPGST,115040.92,0.000,0.000,0.000,89.17,0.04,0.03,0.04*69
$PRDID,-001.88,-009.16,235A07$GPGGA,115042.92,4913.746617,N,01634.313049,E,4,12,0.0,348.567,M,44.831,M,,*65
$GPRMC,115042.92,A,4913.746617,N,01634.313049,E,8.652,140.20,230217,4.25,E,R,S*5F
$GPZDA,115042.92,23,02,2017,,*69
$GPHDT,243.34,T*07
$GPGST,115042.92,0.000,0.000,0.000,89.72,0.04,0.04,0.05*6E
$PRDID,-000.55,-008.80,245534$GPGGA,115044.92,4913.742845,N,01634.317413,E,4,13,0.0,348.461,M,44.831,M,,*67
$GPRMC,115044.92,A,4913.742845,N,01634.317413,E,8.406,146.10,230217,4.25,E,R,S*5D
$GPZDA,115044.92,23,02,2017,,*6F
$GPHDT,249.98,T*0B
$GPGST,115044.92,0.000,0.000,0.000,90.10,0.04,0.04,0.05*64
$PRDID,-001.76,-008.77,245D98$GPGGA,115046.92,4913.738839,N,01634.321064,E,4,13,0.0,348.152,M,44.831,M,,*67
$GPRMC,115046.92,A,4913.738839,N,01634.321064,E,8.461,152.11,230217,4.25,E,R,S*5D
$GPZDA,115046.92,23,02,2017,,*6D
$GPHDT,252.51,T*04
$GPGST,115046.92,0.000,0.000,0.000,90.22,0.04,0.04,0.05*67
$PRDID,-001.13,-008.47,255D51$GPGGA,115048.92,4913.734602,N,01634.324325,E,4,08,0.0,348.128,M,44.831,M,,*67
$GPRMC,115048.92,A,4913.734602,N,01634.324325,E,8.596,154.66,230217,4.25,E,R,S*55
$GPZDA,115048.92,23,02,2017,,*63
$GPHDT,254.35,T*00
$GPGST,115048.92,0.000,0.000,0.000,90.26,0.04,0.04,0.05*6D
$PRDID,-001.25,-009.39,255035$GPGGA,115050.92,4913.730168,N,01634.327270,E,4,08,0.0,348.013,M,44.831,M,,*6A
$GPRMC,115050.92,A,4913.730168,N,01634.327270,E,8.853,156.71,230217,4.25,E,R,S*51
$GPZDA,115050.92,23,02,2017,,*6A
$GPHDT,254.47,T*05
$GPGST,115050.92,0.000,0.000,0.000,90.26,0.04,0.04,0.05*64
$PRDID,-000.89,-009.84,255147$GPGGA,115052.92,4913.725561,N,01634.330230,E,4,09,0.0,347.735,M,44.831,M,,*6E
$GPRMC,115052.92,A,4913.725561,N,01634.330230,E,9.142,156.98,230217,4.25,E,R,S*57
$GPZDA,115052.92,23,02,2017,,*68
$GPHDT,254.17,T*00
$GPGST,115052.92,0.000,0.000,0.000,90.25,0.04,0.04,0.05*65
$PRDID,+000.08,-009.84,255E17$GPGGA,115054.92,4913.720830,N,01634.333408,E,4,12,0.0,347.662,M,44.831,M,,*63
$GPRMC,115054.92,A,4913.720830,N,01634.333408,E,9.517,155.83,230217,4.25,E,R,S*5E
$GPZDA,115054.92,23,02,2017,,*6E
$GPHDT,252.26,T*04
$GPGST,115054.92,0.000,0.000,0.000,90.23,0.04,0.04,0.05*65
$PRDID,-001.28,-008.95,255A26$GPGGA,115056.92,4913.716018,N,01634.336708,E,4,12,0.0,347.881,M,44.831,M,,*63
$GPRMC,115056.92,A,4913.716018,N,01634.336708,E,9.458,154.33,230217,4.25,E,R,S*5D
$GPZDA,115056.92,23,02,2017,,*6C
$GPHDT,249.71,T*0C
$GPGST,115056.92,0.000,0.000,0.000,90.09,0.04,0.04,0.05*6F
$PRDID,+000.24,-009.14,245971$GPGGA,115058.92,4913.711295,N,01634.340198,E,4,12,0.0,348.189,M,44.831,M,,*6D
$GPRMC,115058.92,A,4913.711295,N,01634.340198,E,9.485,154.85,230217,4.25,E,R,S*50
$GPZDA,115058.92,23,02,2017,,*62
$GPHDT,248.83,T*00
$GPGST,115058.92,0.000,0.000,0.000,90.05,0.04,0.04,0.05*6D
$PRDID,-001.82,-009.31,245583$GPGGA,115100.92,4913.706459,N,01634.343486,E,4,12,0.0,348.393,M,44.831,M,,*61
$GPRMC,115100.92,A,4913.706459,N,01634.343486,E,9.633,155.49,230217,4.25,E,R,S*5B
$GPZDA,115100.92,23,02,2017,,*6E
$GPHDT,247.77,T*04
$GPGST,115100.92,0.000,0.000,0.000,89.98,0.04,0.04,0.05*6D
$PRDID,-000.24,-008.90,245277$GPGGA,115102.92,4913.701551,N,01634.346916,E,4,12,0.0,348.506,M,44.831,M,,*66
$GPRMC,115102.92,A,4913.701551,N,01634.346916,E,9.793,156.83,230217,4.25,E,R,S*58
$GPZDA,115102.92,23,02,2017,,*6C
$GPHDT,247.95,T*08
$GPGST,115102.92,0.000,0.000,0.000,90.05,0.04,0.04,0.05*63
$PRDID,-001.09,-008.37,245195$GPGGA,115104.92,4913.696591,N,01634.350391,E,4,12,0.0,348.399,M,44.831,M,,*61
$GPRMC,115104.92,A,4913.696591,N,01634.350391,E,9.898,154.92,230217,4.25,E,R,S*59
$GPZDA,115104.92,23,02,2017,,*6A
$GPHDT,247.37,T*00
$GPGST,115104.92,0.000,0.000,0.000,89.98,0.04,0.04,0.05*69
$PRDID,-001.25,-007.92,245F37$GPGGA,115106.92,4913.691636,N,01634.354072,E,4,11,0.0,348.452,M,44.831,M,,*63
$GPRMC,115106.92,A,4913.691636,N,01634.354072,E,9.944,153.83,230217,4.25,E,R,S*5F
$GPZDA,115106.92,23,02,2017,,*68
$GPHDT,246.81,T*0C
$GPGST,115106.92,0.000,0.000,0.000,89.94,0.04,0.04,0.05*67
$PRDID,-001.79,-007.57,245F81$GPGGA,115108.92,4913.686670,N,01634.357696,E,4,11,0.0,348.398,M,44.831,M,,*67
$GPRMC,115108.92,A,4913.686670,N,01634.357696,E,9.833,154.59,230217,4.25,E,R,S*5B
$GPZDA,115108.92,23,02,2017,,*66
$GPHDT,246.56,T*06
$GPGST,115108.92,0.000,0.000,0.000,89.92,0.04,0.04,0.05*6F
$PRDID,-000.89,-006.98,245356$GPGGA,115110.92,4913.681772,N,01634.361232,E,4,12,0.0,348.529,M,44.831,M,,*6A
$GPRMC,115110.92,A,4913.681772,N,01634.361232,E,9.691,155.23,230217,4.25,E,R,S*53
$GPZDA,115110.92,23,02,2017,,*6F
$GPHDT,244.19,T*0F
$GPGST,115110.92,0.000,0.000,0.000,89.84,0.04,0.04,0.05*61
$PRDID,-001.19,-007.17,245D19$GPGGA,115112.92,4913.676840,N,01634.364620,E,4,12,0.0,348.632,M,44.831,M,,*65
$GPRMC,115112.92,A,4913.676840,N,01634.364620,E,9.794,156.21,230217,4.25,E,R,S*50
$GPZDA,115112.92,23,02,2017,,*6D
$GPHDT,246.27,T*00
$GPGST,115112.92,0.000,0.000,0.000,89.96,0.04,0.04,0.05*60
$PRDID,-000.66,-007.26,245627$GPGGA,115114.91,4913.672757,N,01634.369731,E,4,12,0.0,348.319,M,44.831,M,,*6D
$GPRMC,115114.91,A,4913.672757,N,01634.369731,E,9.842,116.04,230217,4.25,E,R,S*53
$GPZDA,115114.91,23,02,2017,,*68
$GPHDT,223.89,T*07
$GPGST,115114.91,0.000,0.000,0.000,88.76,0.04,0.04,0.05*6A
$PRDID,+010.48,-002.71,225A89$GPGGA,115116.92,4913.672675,N,01634.377338,E,4,11,0.0,348.684,M,44.831,M,,*6D
$GPRMC,115116.92,A,4913.672675,N,01634.377338,E,8.634,56.70,230217,4.25,E,R,S*69
$GPZDA,115116.92,23,02,2017,,*69
$GPHDT,179.55,T*0A
$GPGST,115116.92,0.000,0.000,0.000,88.99,0.04,0.04,0.05*6A
$PRDID,+010.94,+005.05,175A55$GPGGA,115118.92,4913.676462,N,01634.381015,E,4,11,0.0,348.929,M,44.831,M,,*6E
$GPRMC,115118.92,A,4913.676462,N,01634.381015,E,8.349,13.05,230217,4.25,E,R,S*6E
$GPZDA,115118.92,23,02,2017,,*67
$GPHDT,128.31,T*0C
$GPGST,115118.92,0.000,0.000,0.000,91.08,0.04,0.04,0.05*64
$PRDID,+006.97,+001.29,125431$GPGGA,115120.92,4913.681037,N,01634.380847,E,4,11,0.0,348.833,M,44.831,M,,*6D
$GPRMC,115120.92,A,4913.681037,N,01634.380847,E,8.428,348.22,230217,4.25,E,R,S*5F
$GPZDA,115120.92,23,02,2017,,*6C
$GPHDT,93.33,T*3F
$GPGST,115120.92,0.000,0.000,0.000,90.87,0.04,0.04,0.05*69
$PRDID,+003.74,-002.99,095333$GPGGA,115122.92,4913.685614,N,01634.378707,E,4,12,0.0,348.669,M,44.831,M,,*62
$GPRMC,115122.92,A,4913.685614,N,01634.378707,E,8.809,338.53,230217,4.25,E,R,S*5C
$GPZDA,115122.92,23,02,2017,,*6E
$GPHDT,73.77,T*31
$GPGST,115122.92,0.000,0.000,0.000,90.25,0.04,0.04,0.05*63
$PRDID,+002.55,-003.47,075377$GPGGA,115124.91,4913.690176,N,01634.375659,E,4,10,0.0,348.426,M,44.831,M,,*6C
$GPRMC,115124.91,A,4913.690176,N,01634.375659,E,9.125,333.18,230217,4.25,E,R,S*5B
$GPZDA,115124.91,23,02,2017,,*6B
$GPHDT,67.80,T*3C
$GPGST,115124.91,0.000,0.000,0.000,90.03,0.04,0.04,0.05*62
$PRDID,+002.80,-004.38,065480$GPGGA,115126.92,4913.694754,N,01634.371696,E,4,10,0.0,347.996,M,44.831,M,,*61
$GPRMC,115126.92,A,4913.694754,N,01634.371696,E,9.700,327.85,230217,4.25,E,R,S*5F
$GPZDA,115126.92,23,02,2017,,*6A
$GPHDT,67.50,T*31
$GPGST,115126.92,0.000,0.000,0.000,90.03,0.04,0.04,0.05*63
$PRDID,+004.19,-003.80,065650$GPGGA,115128.92,4913.699419,N,01634.367252,E,4,10,0.0,347.715,M,44.831,M,,*66
$GPRMC,115128.92,A,4913.699419,N,01634.367252,E,9.898,328.77,230217,4.25,E,R,S*51
$GPZDA,115128.92,23,02,2017,,*64
$GPHDT,70.13,T*30
$GPGST,115128.92,0.000,0.000,0.000,90.11,0.04,0.04,0.05*6E
$PRDID,+001.56,-002.08,075913$GPGGA,115130.92,4913.704027,N,01634.363037,E,4,10,0.0,347.760,M,44.831,M,,*64
$GPRMC,115130.92,A,4913.704027,N,01634.363037,E,9.494,329.36,230217,4.25,E,R,S*55
$GPZDA,115130.92,23,02,2017,,*6D
$GPHDT,75.63,T*32
$GPGST,115130.92,0.000,0.000,0.000,90.27,0.04,0.04,0.05*62
$PRDID,+000.28,-001.66,075A63$GPGGA,115132.92,4913.708581,N,01634.359184,E,4,10,0.0,347.856,M,44.831,M,,*69
$GPRMC,115132.92,A,4913.708581,N,01634.359184,E,9.303,331.71,230217,4.25,E,R,S*51
$GPZDA,115132.92,23,02,2017,,*6F
$GPHDT,79.35,T*3D
$GPGST,115132.92,0.000,0.000,0.000,90.40,0.04,0.04,0.05*61
$PRDID,+001.97,-001.23,075E35$GPGGA,115134.92,4913.713123,N,01634.355552,E,4,10,0.0,347.989,M,44.831,M,,*69
$GPRMC,115134.92,A,4913.713123,N,01634.355552,E,9.189,334.06,230217,4.25,E,R,S*57
$GPZDA,115134.92,23,02,2017,,*69
$GPHDT,82.43,T*38
$GPGST,115134.92,0.000,0.000,0.000,90.50,0.04,0.04,0.05*66
$PRDID,+002.11,-001.18,085B43$GPGGA,115136.96,4913.717869,N,01634.352031,E,4,10,0.0,348.031,M,44.831,M,,*6E
$GPRMC,115136.96,A,4913.717869,N,01634.352031,E,9.416,333.67,230217,4.25,E,R,S*56
$GPZDA,115136.96,23,02,2017,,*6F
$GPHDT,85.74,T*3B
$GPGST,115136.96,0.000,0.000,0.000,90.60,0.04,0.04,0.05*63
$PRDID,+002.00,-001.21,085174$GPGGA,115138.96,4913.722575,N,01634.348518,E,4,13,0.0,348.181,M,44.831,M,,*6A
$GPRMC,115138.96,A,4913.722575,N,01634.348518,E,9.487,334.45,230217,4.25,E,R,S*54
$GPZDA,115138.96,23,02,2017,,*61
$GPHDT,86.87,T*34
$GPGST,115138.96,0.000,0.000,0.000,90.67,0.04,0.04,0.05*6A
$PRDID,+002.61,-000.46,085687$GPGGA,115140.96,4913.727334,N,01634.344989,E,4,13,0.0,348.162,M,44.831,M,,*66
$GPRMC,115140.96,A,4913.727334,N,01634.344989,E,9.544,334.52,230217,4.25,E,R,S*5D
$GPZDA,115140.96,23,02,2017,,*6E
$GPHDT,88.12,T*36
$GPGST,115140.96,0.000,0.000,0.000,90.75,0.04,0.03,0.04*60
$PRDID,+002.28,-000.33,085912$GPGGA,115142.96,4913.732096,N,01634.341522,E,4,13,0.0,348.010,M,44.831,M,,*67
$GPRMC,115142.96,A,4913.732096,N,01634.341522,E,9.499,335.02,230217,4.25,E,R,S*5D
$GPZDA,115142.96,23,02,2017,,*6C
$GPHDT,89.31,T*36
$GPGST,115142.96,0.000,0.000,0.000,90.77,0.04,0.03,0.04*60
$PRDID,+001.99,-000.49,085D31$GPGGA,115144.95,4913.736896,N,01634.338169,E,4,13,0.0,347.906,M,44.831,M,,*6A
$GPRMC,115144.95,A,4913.736896,N,01634.338169,E,9.605,335.88,230217,4.25,E,R,S*54
$GPZDA,115144.95,23,02,2017,,*69
$GPHDT,89.74,T*37
$GPGST,115144.95,0.000,0.000,0.000,90.79,0.04,0.03,0.04*6B
$PRDID,+002.86,-000.38,085674$GPGGA,115146.96,4913.741791,N,01634.334751,E,4,13,0.0,347.844,M,44.831,M,,*65
$GPRMC,115146.96,A,4913.741791,N,01634.334751,E,9.682,335.49,230217,4.25,E,R,S*5E
$GPZDA,115146.96,23,02,2017,,*68
$GPHDT,90.58,T*31
$GPGST,115146.96,0.000,0.000,0.000,90.75,0.04,0.04,0.05*60
$PRDID,+002.69,-000.59,095058$GPGGA,115148.96,4913.746705,N,01634.331291,E,4,13,0.0,347.881,M,44.831,M,,*64
$GPRMC,115148.96,A,4913.746705,N,01634.331291,E,9.711,334.13,230217,4.25,E,R,S*53
$GPZDA,115148.96,23,02,2017,,*66
$GPHDT,90.83,T*37
$GPGST,115148.96,0.000,0.000,0.000,90.76,0.04,0.04,0.05*6D
$PRDID,+002.84,-000.65,095C83$GPGGA,115150.96,4913.751429,N,01634.327770,E,4,15,0.0,348.023,M,44.831,M,,*62
$GPRMC,115150.96,A,4913.751429,N,01634.327770,E,9.038,334.49,230217,4.25,E,R,S*5F
$GPZDA,115150.96,23,02,2017,,*6F
$GPHDT,91.04,T*39
$GPGST,115150.96,0.000,0.000,0.000,90.11,0.10,0.10,0.21*63
$PRDID,+002.46,+001.63,095304$GPGGA,115152.96,4913.755386,N,01634.324535,E,4,15,0.0,347.847,M,44.831,M,,*63
$GPRMC,115152.96,A,4913.755386,N,01634.324535,E,7.544,330.41,230217,4.25,E,R,S*57
$GPZDA,115152.96,23,02,2017,,*6D
$GPHDT,91.14,T*38
$GPGST,115152.96,0.000,0.000,0.000,90.07,0.12,0.12,0.35*63
$PRDID,+003.12,+002.19,095D14$GPGGA,115154.96,4913.758564,N,01634.321552,E,4,15,0.0,347.975,M,44.831,M,,*66
$GPRMC,115154.96,A,4913.758564,N,01634.321552,E,5.913,330.00,230217,4.25,E,R,S*5B
$GPZDA,115154.96,23,02,2017,,*6B
$GPHDT,91.52,T*3A
$GPGST,115154.96,0.000,0.000,0.000,90.05,0.14,0.14,0.39*6B
$PRDID,-000.27,+002.29,095D52$GPGGA,115156.96,4913.761015,N,01634.319557,E,5,15,0.0,348.295,M,44.831,M,,*68
$GPRMC,115156.96,A,4913.761015,N,01634.319557,E,4.129,337.68,230217,4.25,E,F,S*43
$GPZDA,115156.96,23,02,2017,,*69
$GPHDT,91.85,T*30
$GPGST,115156.96,0.000,0.000,0.000,90.05,0.14,0.14,0.39*69
$PRDID,+000.25,+002.85,095F85$GPGGA,115158.96,4913.762740,N,01634.318614,E,5,15,0.0,348.467,M,44.831,M,,*6C
$GPRMC,115158.96,A,4913.762740,N,01634.318614,E,2.408,341.59,230217,4.25,E,F,S*4F
$GPZDA,115158.96,23,02,2017,,*67
$GPHDT,93.36,T*3A
$GPGST,115158.96,0.000,0.000,0.000,90.05,0.14,0.14,0.39*67
$PRDID,-000.08,+004.75,095F36$GPGGA,115200.96,4913.763480,N,01634.318382,E,5,15,0.0,348.681,M,44.831,M,,*6C
$GPRMC,115200.96,A,4913.763480,N,01634.318382,E,0.968,11.86,230217,4.25,E,F,S*78
$GPZDA,115200.96,23,02,2017,,*69
$GPHDT,92.77,T*3E
$GPGST,115200.96,0.000,0.000,0.000,90.03,0.14,0.14,0.39*6F
$PRDID,+000.60,+000.69,095E77$GPGGA,115202.96,4913.764028,N,01634.318489,E,5,15,0.0,348.762,M,44.831,M,,*6F
$GPRMC,115202.96,A,4913.764028,N,01634.318489,E,0.674,7.78,230217,4.25,E,F,S*43
$GPZDA,115202.96,23,02,2017,,*6B
$GPHDT,93.00,T*3F
$GPGST,115202.96,0.000,0.000,0.000,90.02,0.14,0.14,0.39*6C
$PRDID,+000.86,+003.66,095A00$GPGGA,115204.96,4913.762957,N,01634.318683,E,5,15,0.0,348.946,M,44.831,M,,*6E
$GPRMC,115204.96,A,4913.762957,N,01634.318683,E,5.763,173.07,230217,4.25,E,F,S*42
$GPZDA,115204.96,23,02,2017,,*6D
$GPHDT,92.03,T*3D
$GPGST,115204.96,0.000,0.000,0.000,90.01,0.14,0.14,0.39*69
$PRDID,-001.65,+015.47,095403$GPGGA,115206.96,4913.758508,N,01634.319831,E,5,15,0.0,349.827,M,44.831,M,,*62
$GPRMC,115206.96,A,4913.758508,N,01634.319831,E,8.511,171.16,230217,4.25,E,F,S*41
$GPZDA,115206.96,23,02,2017,,*6F
$GPHDT,92.50,T*3B
$GPGST,115206.96,0.000,0.000,0.000,90.01,0.14,0.14,0.39*6B
$PRDID,+005.80,+004.30,095D50$GPGGA,115208.96,4913.754006,N,01634.319465,E,5,15,0.0,350.133,M,44.831,M,,*62
$GPRMC,115208.96,A,4913.754006,N,01634.319465,E,9.456,191.91,230217,4.25,E,F,S*47
$GPZDA,115208.96,23,02,2017,,*61
$GPHDT,91.20,T*3F
$GPGST,115208.96,0.000,0.000,0.000,90.04,0.14,0.14,0.40*6E
$PRDID,+004.32,+017.44,095420$GPGGA,115210.96,4913.747398,N,01634.317413,E,5,15,0.0,350.479,M,44.831,M,,*69
$GPRMC,115210.96,A,4913.747398,N,01634.317413,E,13.675,191.69,230217,4.25,E,F,S*78
$GPZDA,115210.96,23,02,2017,,*68
$GPHDT,90.66,T*3C
$GPGST,115210.96,0.000,0.000,0.000,90.04,0.14,0.14,0.40*67
$PRDID,+002.37,+011.98,095066$GPGGA,115212.96,4913.739777,N,01634.314819,E,5,15,0.0,350.645,M,44.831,M,,*6F
$GPRMC,115212.96,A,4913.739777,N,01634.314819,E,14.174,192.94,230217,4.25,E,F,S*73
$GPZDA,115212.96,23,02,2017,,*6A
$GPHDT,90.05,T*39
$GPGST,115212.96,0.000,0.000,0.000,90.04,0.14,0.14,0.39*6B
$PRDID,+000.68,+008.54,095005$GPGGA,115214.96,4913.732528,N,01634.312526,E,5,15,0.0,348.015,M,44.831,M,,*67
$GPRMC,115214.96,A,4913.732528,N,01634.312526,E,11.677,189.58,230217,4.25,E,F,S*7A
$GPZDA,115214.96,23,02,2017,,*6C
$GPHDT,93.16,T*38
$GPGST,115214.96,0.000,0.000,0.000,90.06,0.14,0.14,0.39*6F
$PRDID,-002.08,-000.07,095A16$GPGGA,115216.96,4913.727210,N,01634.311477,E,5,15,0.0,344.801,M,44.831,M,,*6A
$GPRMC,115216.96,A,4913.727210,N,01634.311477,E,7.605,193.14,230217,4.25,E,F,S*47
$GPZDA,115216.96,23,02,2017,,*6E
$GPHDT,117.45,T*03
$GPGST,115216.96,0.000,0.000,0.000,90.06,0.14,0.14,0.39*6D
$PRDID,+006.76,+003.34,115545$GPGGA,115218.95,4913.723462,N,01634.308845,E,5,15,0.0,338.660,M,44.831,M,,*67
$GPRMC,115218.95,A,4913.723462,N,01634.308845,E,7.104,212.03,230217,4.25,E,F,S*42
$GPZDA,115218.95,23,02,2017,,*63
$GPHDT,116.19,T*0B
$GPGST,115218.95,0.000,0.000,0.000,90.07,0.14,0.14,0.39*61
$PRDID,+001.33,-000.98,115019$GPGGA,115220.96,4913.721033,N,01634.305786,E,5,15,0.0,334.722,M,44.831,M,,*6B
$GPRMC,115220.96,A,4913.721033,N,01634.305786,E,5.934,216.01,230217,4.25,E,F,S*4A
$GPZDA,115220.96,23,02,2017,,*6B
$GPHDT,115.02,T*02
$GPGST,115220.96,0.000,0.000,0.000,90.08,0.14,0.14,0.39*66
$PRDID,-002.62,+014.37,115702$GPGGA,115222.96,4913.718184,N,01634.303890,E,5,15,0.0,332.044,M,44.831,M,,*61
$GPRMC,115222.96,A,4913.718184,N,01634.303890,E,2.568,173.17,230217,4.25,E,F,S*44
$GPZDA,115222.96,23,02,2017,,*69
$GPHDT,114.60,T*07
$GPGST,115222.96,0.000,0.000,0.000,90.05,0.14,0.14,0.40*67
$PRDID,-004.80,-007.67,115C60$GPGGA,115224.96,4913.717639,N,01634.304359,E,5,15,0.0,328.816,M,44.831,M,,*64
$GPRMC,115224.96,A,4913.717639,N,01634.304359,E,0.590,198.93,230217,4.25,E,F,S*49
$GPZDA,115224.96,23,02,2017,,*6F
$GPHDT,113.33,T*06
$GPGST,115224.96,0.000,0.000,0.000,90.05,0.14,0.14,0.40*61
$PRDID,+002.68,+006.46,115E33$GPGGA,115226.95,4913.717124,N,01634.303501,E,5,15,0.0,325.271,M,44.831,M,,*64
$GPRMC,115226.95,A,4913.717124,N,01634.303501,E,1.899,228.65,230217,4.25,E,F,S*4B
$GPZDA,115226.95,23,02,2017,,*6E
$GPHDT,113.28,T*0C
$GPGST,115226.95,0.000,0.000,0.000,90.06,0.14,0.14,0.40*63
$PRDID,-001.47,+002.23,115128$GPGGA,115228.96,4913.716638,N,01634.302658,E,5,15,0.0,322.188,M,44.831,M,,*6E
$GPRMC,115228.96,A,4913.716638,N,01634.302658,E,1.028,223.48,230217,4.25,E,F,S*45
$GPZDA,115228.96,23,02,2017,,*63
$GPHDT,113.97,T*08
$GPGST,115228.96,0.000,0.000,0.000,90.06,0.14,0.14,0.40*6E
$PRDID,-000.62,+004.47,115397$GPGGA,115230.96,4913.715650,N,01634.302005,E,5,15,0.0,319.423,M,44.831,M,,*68
$GPRMC,115230.96,A,4913.715650,N,01634.302005,E,2.806,188.88,230217,4.25,E,F,S*46
$GPZDA,115230.96,23,02,2017,,*6A
$GPHDT,113.04,T*02
$GPGST,115230.96,0.000,0.000,0.000,90.06,0.14,0.14,0.40*67
$PRDID,-001.78,+006.14,115D04$GPGGA,115232.96,4913.714006,N,01634.301601,E,5,08,0.0,316.268,M,44.831,M,,*65
$GPRMC,115232.96,A,4913.714006,N,01634.301601,E,2.855,193.18,230217,4.25,E,F,S*44
$GPZDA,115232.96,23,02,2017,,*68
$GPHDT,118.33,T*0D
$GPGST,115232.96,0.000,0.000,0.000,90.05,0.16,0.16,0.46*60
$PRDID,+001.54,+003.52,115233$GPGGA,115234.95,4913.712583,N,01634.300655,E,5,08,0.0,312.988,M,44.831,M,,*6F
$GPRMC,115234.95,A,4913.712583,N,01634.300655,E,3.043,194.38,230217,4.25,E,F,S*44
$GPZDA,115234.95,23,02,2017,,*6D
$GPHDT,120.35,T*00
$GPGST,115234.95,0.000,0.000,0.000,90.04,0.19,0.19,0.57*64
$PRDID,-002.67,+002.43,125635$GPGGA,115236.95,4913.711206,N,01634.300231,E,5,08,0.0,310.116,M,44.831,M,,*6F
$GPRMC,115236.95,A,4913.711206,N,01634.300231,E,2.758,189.78,230217,4.25,E,F,S*4D
$GPZDA,115236.95,23,02,2017,,*6F
$GPHDT,121.05,T*02
$GPGST,115236.95,0.000,0.000,0.000,90.03,0.20,0.20,0.60*65
$PRDID,-000.21,+002.79,125F05$GPGGA,115238.96,4913.710763,N,01634.299713,E,5,08,0.0,310.453,M,44.831,M,,*65
$GPRMC,115238.96,A,4913.710763,N,01634.299713,E,0.512,297.94,230217,4.25,E,F,S*43
$GPZDA,115238.96,23,02,2017,,*62
$GPHDT,123.15,T*01
$GPGST,115238.96,0.000,0.000,0.000,90.03,0.21,0.21,0.60*68
$PRDID,-002.59,-000.39,125215$GPGGA,115240.95,4913.711197,N,01634.299667,E,5,08,0.0,309.784,M,44.831,M,,*66
$GPRMC,115240.95,A,4913.711197,N,01634.299667,E,0.859,334.19,230217,4.25,E,F,S*4E
$GPZDA,115240.95,23,02,2017,,*6E
$GPHDT,127.93,T*0B
$GPGST,115240.95,0.000,0.000,0.000,90.02,0.21,0.21,0.61*64
$PRDID,+001.33,+005.06,125493$GPGGA,115242.96,4913.711168,N,01634.299316,E,5,08,0.0,308.162,M,44.831,M,,*6B
$GPRMC,115242.96,A,4913.711168,N,01634.299316,E,0.443,192.93,230217,4.25,E,F,S*47
